[
    {
        "id": "W01",
        "name": "Solo Safari",
        "lat": -7.564391741,
        "lon": 110.8586613
    },
    {
        "id": "W02",
        "name": "Danau UNS",
        "lat": -7.561172246,
        "lon": 110.8581931
    },
    {
        "id": "W03",
        "name": "Benteng Vastenburg",
        "lat": -7.571804006,
        "lon": 110.8307858
    },
    {
        "id": "W04",
        "name": "Kampung Wisata Batik Kauman",
        "lat": -7.573215566,
        "lon": 110.8263633
    },
    {
        "id": "W05",
        "name": "Pasar Triwindu",
        "lat": -7.568984669,
        "lon": 110.8225384
    },
    {
        "id": "W06",
        "name": "Taman Sriwedari",
        "lat": -7.568224905,
        "lon": 110.8129629
    },
    {
        "id": "W07",
        "name": "De Tjolomadoe",
        "lat": -7.533922576,
        "lon": 110.7498663
    },
    {
        "id": "W08",
        "name": "Lapangan Makamhaji",
        "lat": -7.5691203,
        "lon": 110.7831005
    },
    {
        "id": "W09",
        "name": "Balaikota Surakarta",
        "lat": -7.569192352,
        "lon": 110.8296584
    },
    {
        "id": "W10",
        "name": "Pasar Gede",
        "lat": -7.569143893,
        "lon": 110.8314553
    },
    {
        "id": "W11",
        "name": "Solo Techno Park",
        "lat": -7.555835181,
        "lon": 110.8538009
    },
    {
        "id": "W12",
        "name": "Taman Cerdas",
        "lat": -7.553839457,
        "lon": 110.8534741
    },
    {
        "id": "W13",
        "name": "Taman Lansia",
        "lat": -7.55669203,
        "lon": 110.8607455
    },
    {
        "id": "W14",
        "name": "Stadion Manahan",
        "lat": -7.555259829,
        "lon": 110.8065227
    },
    {
        "id": "W15",
        "name": "Taman Tirtonadi",
        "lat": -7.551283848,
        "lon": 110.8204733
    },
    {
        "id": "W16",
        "name": "Tumurun Private Museum",
        "lat": -7.570257605,
        "lon": 110.8164116
    },
    {
        "id": "W17",
        "name": "Ngarsopuro Night Market",
        "lat": -7.568494751,
        "lon": 110.822291
    },
    {
        "id": "W18",
        "name": "Taman Balikota Solo",
        "lat": -7.569219287,
        "lon": 110.8298679
    },
    {
        "id": "W19",
        "name": "Museum Radya Pustaka",
        "lat": -7.568292105,
        "lon": 110.8144969
    },
    {
        "id": "W20",
        "name": "Pasar Malangjiwan Colomadu",
        "lat": -7.531636047,
        "lon": 110.7472482
    },
    {
        "id": "W21",
        "name": "Museum Keris Nusantara",
        "lat": -7.568754681,
        "lon": 110.8107542
    },
    {
        "id": "W22",
        "name": "Loji Gandrung",
        "lat": -7.566305927,
        "lon": 110.8095326
    },
    {
        "id": "W23",
        "name": "Gedung Wayang Orang Dance Theatre",
        "lat": -7.56905024,
        "lon": 110.812558
    },
    {
        "id": "W24",
        "name": "House of Danar Hadi",
        "lat": -7.568506445,
        "lon": 110.8162107
    },
    {
        "id": "W25",
        "name": "Taman Punggawan Ngesus",
        "lat": -7.564517132,
        "lon": 110.818271
    },
    {
        "id": "W26",
        "name": "Pura Mangkunegaran",
        "lat": -7.566613944,
        "lon": 110.8228758
    },
    {
        "id": "W27",
        "name": "Pasar Klewer",
        "lat": -7.575178766,
        "lon": 110.8267555
    },
    {
        "id": "W28",
        "name": "Taman Sunan Jogo Kali",
        "lat": -7.569809858,
        "lon": 110.8581447
    },
    {
        "id": "W29",
        "name": "Grojogan Sewu",
        "lat": -7.660386,
        "lon": 111.130083
    },
    {
        "id": "W30",
        "name": "Umbul Ponggok",
        "lat": -7.613858,
        "lon": 110.6358
    },
    {
        "id": "W31",
        "name": "Waduk Gajah Mungkur",
        "lat": -7.83983,
        "lon": 110.924189
    },
    {
        "id": "W32",
        "name": "Museum Sangiran",
        "lat": -7.399997,
        "lon": 110.80983
    },
    {
        "id": "W33",
        "name": "Masjid Agung Surakarta",
        "lat": -7.5746,
        "lon": 110.8263
    },
    {
        "id": "W34",
        "name": "Alun-Alun Utara Surakarta",
        "lat": -7.5739,
        "lon": 110.8277
    },
    {
        "id": "W35",
        "name": "Lokananta Recording Studio",
        "lat": -7.5615,
        "lon": 110.7937
    },
    {
        "id": "W36",
        "name": "Taman Budaya Jawa Tengah (TBJT)",
        "lat": -7.5583,
        "lon": 110.8415
    },
    {
        "id": "W37",
        "name": "Monumen 45 Banjarsari (Monjari)",
        "lat": -7.5617,
        "lon": 110.8213
    },
    {
        "id": "W38",
        "name": "Pasar Burung dan Ikan Hias Depok",
        "lat": -7.5564,
        "lon": 110.8093
    },
    {
        "id": "W39",
        "name": "Kampung Blangkon Serengan",
        "lat": -7.5819,
        "lon": 110.8172
    },
    {
        "id": "W40",
        "name": "Museum Samanhoedi",
        "lat": -7.5684,
        "lon": 110.7963
    },
    {
        "id": "W41",
        "name": "Taman Jayawijaya Mojosongo",
        "lat": -7.5412,
        "lon": 110.8354
    },
    {
        "id": "W42",
        "name": "Edupark UMS",
        "lat": -7.5559,
        "lon": 110.7681
    },
    {
        "id": "W43",
        "name": "Petilasan Keraton Kartasura",
        "lat": -7.5529,
        "lon": 110.7381
    },
    {
        "id": "W44",
        "name": "Pandawa Water World",
        "lat": -7.6006,
        "lon": 110.8118
    },
    {
        "id": "W45",
        "name": "Sentra Kerajinan Gitar Baki",
        "lat": -7.6186,
        "lon": 110.7854
    },
    {
        "id": "W46",
        "name": "Candi Plaosan",
        "lat": -7.7404,
        "lon": 110.5045
    },
    {
        "id": "W47",
        "name": "Pabrik Gula Gondang Winangoen",
        "lat": -7.7317,
        "lon": 110.5516
    },
    {
        "id": "W48",
        "name": "Rawa Jombor",
        "lat": -7.7562,
        "lon": 110.6241
    },
    {
        "id": "W49",
        "name": "Candi Sewu",
        "lat": -7.7439,
        "lon": 110.4928
    },
    {
        "id": "W50",
        "name": "Alun-Alun Karanganyar",
        "lat": -7.5954,
        "lon": 110.9482
    },
    {
        "id": "W51",
        "name": "Taman Pancasila",
        "lat": -7.5947,
        "lon": 110.9427
    },
    {
        "id": "W52",
        "name": "Simpang Lima Boyolali (Patung Kuda)",
        "lat": -7.5306,
        "lon": 110.5961
    }
]